[
  {
    "pin": "l5",
    "label": ", Méningite, Paludisme, Rougeole",
    "place_id": 142,
    "place_name": "Inde",
    "lat": 22.8835,
    "lon": 79.6162,
    "alertids": [
      "10854792",
      "10854777",
      "10854739",
      "10854728",
      "10854694",
      "10854673",
      "10854625",
      "10854609",
      "10854602",
      "10854579",
      "10854571",
      "10854520",
      "10854511",
      "10854505",
      "10854496",
      "10854415",
      "10854409",
      "10854371",
      "10854322",
      "10854289",
      "10854241",
      "10854237",
      "10854203",
      "10854140",
      "10854117",
      "10854098",
      "10854097",
      "10854091",
      "10854088",
      "10854066",
      "10854027",
      "10854011",
      "10854002",
      "10853990",
      "10853961",
      "10853960",
      "10853959",
      "10853935",
      "10853943",
      "10853933",
      "10853931",
      "10853929",
      "10853917",
      "10853910",
      "10853908",
      "10853865",
      "10853857",
      "10853851",
      "10853843",
      "10853839",
      "10853830",
      "10853829",
      "10853824",
      "10853798",
      "10853795",
      "10853777",
      "10853776",
      "10853744",
      "10853680",
      "10853558",
      "10852388",
      "10850925",
      "10850779",
      "10850111",
      "10849972",
      "10849866",
      "10848953",
      "10848721",
      "10847958",
      "10847563",
      "10847465",
      "10847377",
      "10847000",
      "10846882",
      "10846730",
      "10846698",
      "10846082",
      "10845795",
      "10845508",
      "10844794",
      "10844750",
      "10844745",
      "10844545",
      "10844541",
      "10844496",
      "10844441",
      "10844382",
      "10844313",
      "10844189",
      "10842582",
      "10842578",
      "10842054",
      "10841875",
      "10841748",
      "10841618",
      "10841065",
      "10841055",
      "10840942",
      "10840938",
      "10840862",
      "10840844",
      "10840824",
      "10840780",
      "10840777",
      "10840700",
      "10840683",
      "10840595",
      "10840079",
      "10839250",
      "10839173",
      "10838884",
      "10838722",
      "10838547",
      "10838391",
      "10838153",
      "10838110",
      "10838098",
      "10838057",
      "10838032",
      "10837956",
      "10837925",
      "10837916",
      "10837892",
      "10837847",
      "10837819",
      "10837748",
      "10837742",
      "10837636",
      "10837550",
      "10837046",
      "10836513",
      "10836133",
      "10835668",
      "10835624",
      "10835570",
      "10835464",
      "10835375",
      "10835295",
      "10834934",
      "10834918",
      "10834741",
      "10834619",
      "10834362",
      "10834330",
      "10834104",
      "10834049",
      "10833958",
      "10833859",
      "10833732",
      "10833722",
      "10833680",
      "10833644",
      "10833508",
      "10833475",
      "10833458",
      "10833455",
      "10833452",
      "10833223"
    ]
  },
  {
    "pin": "s3",
    "label": "",
    "place_id": 330,
    "place_name": "Territoire Capital de Delhi",
    "lat": 28.6713,
    "lon": 77.2119,
    "alertids": [
      "10854792",
      "10854396",
      "10854233",
      "10854076",
      "10854013",
      "10854011",
      "10853999",
      "10853995",
      "10853990",
      "10853988",
      "10853961",
      "10853954",
      "10853949",
      "10853935",
      "10853943",
      "10853931",
      "10853918",
      "10853917",
      "10853865",
      "10853843",
      "10853839",
      "10853833",
      "10853824",
      "10853798",
      "10853795",
      "10853777",
      "10853744",
      "10853677",
      "10848953",
      "10847846",
      "10847202",
      "10843937",
      "10840386",
      "10838488",
      "10837376",
      "10833702"
    ]
  },
  {
    "pin": "s3",
    "label": ",  Kyasanur Maladie de la forêt",
    "place_id": 307,
    "place_name": "Karnataka",
    "lat": 13.5,
    "lon": 76,
    "alertids": [
      "10854788",
      "10854785",
      "10854574",
      "10854013",
      "10853955",
      "10853106",
      "10852568",
      "10851889",
      "10850694",
      "10848953",
      "10848782",
      "10848760",
      "10848721",
      "10848469",
      "10846241",
      "10845794",
      "10844362",
      "10844275",
      "10843798",
      "10840942",
      "10840938",
      "10840763",
      "10840700",
      "10839283",
      "10838048",
      "10837854",
      "10837840",
      "10836886",
      "10836535",
      "10835127",
      "10834918",
      "10834511",
      "10834049",
      "10834012",
      "10833958",
      "10833917",
      "10833587",
      "10833525",
      "10833481"
    ]
  },
  {
    "pin": "s3",
    "label": "",
    "place_id": 308,
    "place_name": "Kerala",
    "lat": 9.9904,
    "lon": 76.5087,
    "alertids": [
      "10854777",
      "10854739",
      "10854579",
      "10854511",
      "10854289",
      "10854117",
      "10854091",
      "10854013",
      "10854011",
      "10853999",
      "10853960",
      "10853953",
      "10853949",
      "10853943",
      "10853931",
      "10853917",
      "10853851",
      "10853843",
      "10853839",
      "10853824",
      "10853798",
      "10853777",
      "10853744",
      "10851769",
      "10848953",
      "10847377",
      "10847361",
      "10844541",
      "10844382",
      "10841055",
      "10838547",
      "10838153",
      "10834058",
      "10834049",
      "10833158"
    ]
  },
  {
    "pin": "l5",
    "label": ", Dengue, Encephalite, Fièvre, Fièvre catarrhale, Gastro-entérite, Grippe, Grippe aviaire, Méningite, Maladie chronique/non-infectieuse, Papillomavirus, Tuberculose, Virus du Nil occidental ",
    "place_id": 43,
    "place_name": "Espagne",
    "lat": 40.2268,
    "lon": -3.6496,
    "alertids": [
      "10854765",
      "10854643",
      "10854515",
      "10854510",
      "10852694",
      "10852540",
      "10852503",
      "10850877",
      "10850867",
      "10850717",
      "10849837",
      "10848542",
      "10848074",
      "10847829",
      "10847460",
      "10846061",
      "10845540",
      "10845274",
      "10844992",
      "10844741",
      "10844733",
      "10844122",
      "10841100",
      "10841018",
      "10839074",
      "10838281",
      "10838170",
      "10838164",
      "10837405",
      "10836433",
      "10835695",
      "10835606",
      "10835605",
      "10834370",
      "10834270",
      "10834009",
      "10833755",
      "10833747",
      "10833698",
      "10833319"
    ]
  },
  {
    "pin": "s5",
    "label": ", Dengue, Salmonella",
    "place_id": 3861,
    "place_name": "São Paulo, Brazil",
    "lat": -22,
    "lon": -49,
    "alertids": [
      "10854724",
      "10854348",
      "10853809",
      "10849651",
      "10847443",
      "10847288",
      "10846379",
      "10845704",
      "10840206",
      "10834089",
      "10832993"
    ]
  },
  {
    "pin": "s5",
    "label": "Dengue",
    "place_id": 492,
    "place_name": "Colima",
    "lat": 19.1,
    "lon": -103.9,
    "alertids": ["10854716", "10843991"]
  },
  {
    "pin": "l5",
    "label": "Coqueluche, Dengue, Hantavirus, Leptospirose, Maladie respiratoire",
    "place_id": 10,
    "place_name": "Prou",
    "lat": -9.1638,
    "lon": -75.8756,
    "alertids": [
      "10854706",
      "10851963",
      "10850399",
      "10850283",
      "10850141",
      "10850137",
      "10847314",
      "10846050",
      "10843628",
      "10843341"
    ]
  },
  {
    "pin": "l5",
    "label": ", Bronchite/Bronchiolite, Coqueluche, Dengue, Fièvre, Gastro-entérite, Grippe, Grippe aviaire, Grippe porcine, Klebsiella pneumoniae, Leishmaniose, Leptospirose, Maladie chronique/non-infectieuse, Maladie de Chagas, Maladie respiratoire, Oreillons, Ornithose, Pneumonie, Rhume, Virus respiratoire syncytial",
    "place_id": 4,
    "place_name": "Argentine",
    "lat": -35.3764,
    "lon": -64.1677,
    "alertids": [
      "10854706",
      "10853895",
      "10852523",
      "10852151",
      "10851635",
      "10851618",
      "10850798",
      "10850275",
      "10850137",
      "10849747",
      "10848678",
      "10848567",
      "10848431",
      "10848144",
      "10848091",
      "10848072",
      "10848063",
      "10847309",
      "10847125",
      "10846510",
      "10845689",
      "10845549",
      "10845416",
      "10845264",
      "10844988",
      "10844740",
      "10843740",
      "10843739",
      "10843415",
      "10843401",
      "10843195",
      "10842424",
      "10841667",
      "10841306",
      "10841281",
      "10841277",
      "10841273",
      "10840915",
      "10840569",
      "10840559",
      "10840344",
      "10840184",
      "10840164",
      "10840113",
      "10839908",
      "10839494",
      "10839466",
      "10839217",
      "10839058",
      "10838611",
      "10838336",
      "10838125",
      "10838074",
      "10837396",
      "10836251",
      "10835450",
      "10834995",
      "10834480",
      "10834376"
    ]
  },
  {
    "pin": "s3",
    "label": "",
    "place_id": 319,
    "place_name": "Tamil Nadu",
    "lat": 11,
    "lon": 78,
    "alertids": ["10854639", "10854013", "10847326", "10838043"]
  },
  {
    "pin": "s5",
    "label": "Rougeole",
    "place_id": 274,
    "place_name": "Toronto",
    "lat": 43.7075,
    "lon": -79.4092,
    "alertids": ["10854622"]
  },
  {
    "pin": "l4",
    "label": "Paludisme",
    "place_id": 171,
    "place_name": "Zimbabwe",
    "lat": -19.0001,
    "lon": 29.8718,
    "alertids": ["10854612", "10854143"]
  },
  {
    "pin": "l4",
    "label": ", Grippe, Maladie respiratoire, Rhume",
    "place_id": 17,
    "place_name": "Costa Rica",
    "lat": 9.9702,
    "lon": -84.1879,
    "alertids": ["10854559", "10854387", "10847536", "10844302", "10837102"]
  },
  {
    "pin": "l5",
    "label": ", Bronchite/Bronchiolite, Dengue, Fièvre, Fièvre aphteuse, Grippe, Grippe aviaire",
    "place_id": 6,
    "place_name": "Brsil",
    "lat": -10.7731,
    "lon": -53.0898,
    "alertids": [
      "10854556",
      "10853177",
      "10853026",
      "10852829",
      "10852627",
      "10852021",
      "10851315",
      "10850103",
      "10849797",
      "10849662",
      "10849246",
      "10848784",
      "10845716",
      "10842944",
      "10842884",
      "10842430",
      "10841273",
      "10839674",
      "10839494",
      "10838936",
      "10838414",
      "10837693",
      "10832993"
    ]
  },
  {
    "pin": "l5",
    "label": "Grippe, Hépatite",
    "place_id": 20,
    "place_name": "Cuba",
    "lat": 21.6212,
    "lon": -79.0363,
    "alertids": ["10854556", "10849660", "10838699"]
  },
  {
    "pin": "s3",
    "label": "",
    "place_id": 19918,
    "place_name": "Bhubaneshwar, Odisha, India",
    "lat": 20.2333,
    "lon": 85.8333,
    "alertids": ["10854503", "10854418", "10854214", "10844780"]
  },
  {
    "pin": "s5",
    "label": ", Dengue, Diarrhée",
    "place_id": 511,
    "place_name": "Tamaulipas",
    "lat": 23.8,
    "lon": -98.7,
    "alertids": [
      "10854464",
      "10853664",
      "10847124",
      "10833281",
      "10833279",
      "10833221"
    ]
  },
  {
    "pin": "s3",
    "label": "",
    "place_id": 269,
    "place_name": "Nouveau-Brunswick",
    "lat": 46.7097,
    "lon": -66.0499,
    "alertids": [
      "10854410",
      "10851577",
      "10847806",
      "10847465",
      "10845366",
      "10838551",
      "10833458"
    ]
  },
  {
    "pin": "s3",
    "label": "",
    "place_id": 4470,
    "place_name": "Patna, Bihār, India",
    "lat": 25.6,
    "lon": 85.117,
    "alertids": ["10854392", "10854104", "10854103", "10844914", "10840870"]
  },
  {
    "pin": "s3",
    "label": "",
    "place_id": 13779,
    "place_name": "Noida, Uttar Pradesh, India",
    "lat": 28.58,
    "lon": 77.33,
    "alertids": [
      "10854371",
      "10854241",
      "10844663",
      "10844545",
      "10843879",
      "10841797",
      "10841189"
    ]
  },
  {
    "pin": "s5",
    "label": "Dengue",
    "place_id": 2975,
    "place_name": "Santa Catarina, Brazil",
    "lat": -27,
    "lon": -50,
    "alertids": ["10854331", "10846267", "10834677"]
  },
  {
    "pin": "l5",
    "label": "Choléra, Dengue",
    "place_id": 153,
    "place_name": "Bangladesh",
    "lat": 23.8432,
    "lon": 90.2685,
    "alertids": ["10854316", "10854277", "10853642", "10834030"]
  },
  {
    "pin": "l5",
    "label": ", Dengue",
    "place_id": 152,
    "place_name": "Viet Nam",
    "lat": 14.9447,
    "lon": 108.457,
    "alertids": [
      "10854312",
      "10853630",
      "10853624",
      "10844608",
      "10840633",
      "10835799",
      "10835680"
    ]
  },
  {
    "pin": "s3",
    "label": ", Morsure",
    "place_id": 19095,
    "place_name": "Pune, Maharashtra, India",
    "lat": 18.5204,
    "lon": 73.8567,
    "alertids": [
      "10854299",
      "10839349",
      "10837130",
      "10836677",
      "10836067",
      "10835813",
      "10833459"
    ]
  },
  {
    "pin": "s5",
    "label": ", Maladie chronique/non-infectieuse, Rougeole",
    "place_id": 212,
    "place_name": "Floride",
    "lat": 28.1495,
    "lon": -81.6504,
    "alertids": ["10854263", "10843740", "10843405", "10833887", "10833116"]
  },
  {
    "pin": "l5",
    "label": ", Fièvre de Lassa, Méningite, Paludisme",
    "place_id": 62,
    "place_name": "Nigeria",
    "lat": 9.594,
    "lon": 8.1053,
    "alertids": [
      "10854251",
      "10853793",
      "10853739",
      "10853583",
      "10853288",
      "10851753",
      "10851369",
      "10836512",
      "10833906"
    ]
  },
  {
    "pin": "s5",
    "label": ", Rougeole, Virus du Nil occidental ",
    "place_id": 245,
    "place_name": "Texas",
    "lat": 31.2409,
    "lon": -99.2286,
    "alertids": [
      "10854240",
      "10853515",
      "10853281",
      "10853155",
      "10853134",
      "10852663",
      "10851757",
      "10850176",
      "10849489",
      "10849491",
      "10849401",
      "10847876",
      "10845068",
      "10844943",
      "10843456",
      "10843442",
      "10843445",
      "10837662"
    ]
  },
  {
    "pin": "s3",
    "label": "",
    "place_id": 310,
    "place_name": "Maharashtra",
    "lat": 19.5597,
    "lon": 75.8798,
    "alertids": [
      "10854232",
      "10854091",
      "10854014",
      "10854013",
      "10854011",
      "10853999",
      "10853967",
      "10853960",
      "10853953",
      "10853949",
      "10853943",
      "10853931",
      "10853843",
      "10853839",
      "10853824",
      "10853798",
      "10853770",
      "10853744",
      "10852388",
      "10852207",
      "10850910",
      "10850780",
      "10850779",
      "10849299",
      "10848766",
      "10847627",
      "10847377",
      "10847115",
      "10845519",
      "10844382",
      "10841055",
      "10837742",
      "10837636",
      "10836068",
      "10835813",
      "10834646",
      "10834527",
      "10834512",
      "10834049"
    ]
  },
  {
    "pin": "s3",
    "label": "",
    "place_id": 313,
    "place_name": "Mizoram",
    "lat": 22.9988,
    "lon": 92.8102,
    "alertids": [
      "10854232",
      "10854029",
      "10853746",
      "10852388",
      "10852207",
      "10852138",
      "10851953"
    ]
  },
  {
    "pin": "l5",
    "label": ", Coqueluche, Dengue, Diarrhée, Entérovirus, Fièvre, Fièvre jaune, Gonorrhée, Grippe, Grippe aviaire, Méningite, Maladie de Chagas, Maladie respiratoire, Tuberculose",
    "place_id": 16,
    "place_name": "Colombie",
    "lat": 3.9012,
    "lon": -73.0734,
    "alertids": [
      "10854195",
      "10853590",
      "10852358",
      "10851998",
      "10849840",
      "10849741",
      "10848479",
      "10847821",
      "10847214",
      "10846509",
      "10846470",
      "10845875",
      "10844163",
      "10842028",
      "10842026",
      "10841866",
      "10841303",
      "10841273",
      "10840111",
      "10838897",
      "10838697",
      "10837579",
      "10837484",
      "10836966",
      "10835265",
      "10835029",
      "10834484",
      "10834452",
      "10834389",
      "10834262",
      "10834243"
    ]
  },
  {
    "pin": "l5",
    "label": "Dengue, Grippe aviaire, Méningite",
    "place_id": 11,
    "place_name": "Uruguay",
    "lat": -32.7996,
    "lon": -56.0124,
    "alertids": [
      "10854192",
      "10846299",
      "10843245",
      "10842497",
      "10839320",
      "10834754",
      "10834120"
    ]
  },
  {
    "pin": "s3",
    "label": "",
    "place_id": 298,
    "place_name": "Arunachal Pradesh",
    "lat": 28,
    "lon": 94.5,
    "alertids": [
      "10854162",
      "10854095",
      "10854005",
      "10853993",
      "10853909",
      "10853908",
      "10853904",
      "10844545",
      "10844455",
      "10844441",
      "10844244",
      "10844142",
      "10843932",
      "10842776",
      "10840788"
    ]
  },
  {
    "pin": "s5",
    "label": "Rougeole",
    "place_id": 219,
    "place_name": "Kansas",
    "lat": 38.2637,
    "lon": -98.4815,
    "alertids": [
      "10854144",
      "10853263",
      "10846893",
      "10846694",
      "10846216",
      "10846047",
      "10845997",
      "10837548"
    ]
  },
  {
    "pin": "s3",
    "label": "",
    "place_id": 44230,
    "place_name": "Kashmir, India",
    "lat": 33.9167,
    "lon": 76.6667,
    "alertids": [
      "10854140",
      "10854002",
      "10852740",
      "10847738",
      "10847507",
      "10847367",
      "10846033",
      "10838110",
      "10837778"
    ]
  },
  {
    "pin": "l3",
    "label": "",
    "place_id": 184,
    "place_name": "Indonsie",
    "lat": -2.6358,
    "lon": 120.9375,
    "alertids": ["10854133", "10841014", "10837881", "10834007", "10833284"]
  },
  {
    "pin": "s4",
    "label": ", Fièvre, Peste",
    "place_id": 283,
    "place_name": "Londres",
    "lat": 51.5,
    "lon": -0.1167,
    "alertids": ["10854132", "10840617", "10835535"]
  },
  {
    "pin": "s3",
    "label": "",
    "place_id": 299,
    "place_name": "Assam",
    "lat": 25.9975,
    "lon": 93.0102,
    "alertids": [
      "10854106",
      "10844867",
      "10844455",
      "10840839",
      "10840788",
      "10840757"
    ]
  },
  {
    "pin": "l5",
    "label": ", Coqueluche, Grippe, Grippe aviaire, H. influenzae, Légionellose, Peste, Rougeole",
    "place_id": 106,
    "place_name": "tats-Unis",
    "lat": 39.9669,
    "lon": -97.5561,
    "alertids": [
      "10854096",
      "10853871",
      "10853853",
      "10853740",
      "10853616",
      "10853558",
      "10853544",
      "10853187",
      "10853158",
      "10852759",
      "10851774",
      "10851179",
      "10850390",
      "10850105",
      "10849203",
      "10849028",
      "10848432",
      "10847966",
      "10847608",
      "10847552",
      "10847126",
      "10846802",
      "10846797",
      "10846194",
      "10845589",
      "10845547",
      "10842926",
      "10842430",
      "10841954",
      "10841679",
      "10841244",
      "10840824",
      "10840699",
      "10837846",
      "10836832",
      "10836821",
      "10836080",
      "10835482",
      "10834995",
      "10834904",
      "10834869",
      "10834419",
      "10834269",
      "10833242"
    ]
  },
  {
    "pin": "s5",
    "label": "Environnement, Fièvre, Rougeole",
    "place_id": 209,
    "place_name": "Colorado",
    "lat": 38.9935,
    "lon": -105.5127,
    "alertids": [
      "10854096",
      "10853871",
      "10853853",
      "10853740",
      "10853616",
      "10853558",
      "10853544",
      "10852759",
      "10850575",
      "10850240",
      "10850190",
      "10850169",
      "10849822",
      "10846900",
      "10846896"
    ]
  },
  {
    "pin": "l3",
    "label": "",
    "place_id": 139,
    "place_name": "Npal",
    "lat": 28.253,
    "lon": 83.9386,
    "alertids": ["10854088", "10841519"]
  },
  {
    "pin": "l5",
    "label": ", Coqueluche, Diarrhée, Tuberculose",
    "place_id": 155,
    "place_name": "Chine",
    "lat": 36.52,
    "lon": 103.8918,
    "alertids": [
      "10854053",
      "10851658",
      "10850417",
      "10847552",
      "10847271",
      "10847057",
      "10846797",
      "10843420",
      "10841957",
      "10841842",
      "10841058",
      "10840164",
      "10836080",
      "10834269",
      "10834244",
      "10833734",
      "10833105"
    ]
  },
  {
    "pin": "s3",
    "label": "",
    "place_id": 26334,
    "place_name": "Jagatsinghpur, Orissa, India",
    "lat": 20.2,
    "lon": 86.3,
    "alertids": ["10854034"]
  },
  {
    "pin": "l3",
    "label": ", Coqueluche",
    "place_id": 377,
    "place_name": "Guam [EU]",
    "lat": 13.4444,
    "lon": 144.7366,
    "alertids": ["10854019", "10853272"]
  },
  {
    "pin": "l5",
    "label": ", Choléra",
    "place_id": 156,
    "place_name": "Japon",
    "lat": 36.0985,
    "lon": 138.4786,
    "alertids": ["10854019", "10851653"]
  },
  {
    "pin": "s3",
    "label": "",
    "place_id": 302,
    "place_name": "Gujarat",
    "lat": 22.9988,
    "lon": 72.0043,
    "alertids": ["10854013", "10852878", "10851281", "10848445", "10838152"]
  },
  {
    "pin": "l4",
    "label": ", Grippe, Virus respiratoire syncytial",
    "place_id": 186,
    "place_name": "Australie",
    "lat": -25.735,
    "lon": 134.4896,
    "alertids": [
      "10853977",
      "10852742",
      "10850824",
      "10850508",
      "10850164",
      "10842025"
    ]
  },
  {
    "pin": "s3",
    "label": "",
    "place_id": 6938,
    "place_name": "Dharwad, Karnataka, India",
    "lat": 15.4667,
    "lon": 75.0167,
    "alertids": ["10853925", "10852415"]
  },
  {
    "pin": "l5",
    "label": ", Dengue, Syndrome bouche-main-pied, Variole du singe",
    "place_id": 158,
    "place_name": "Philippines",
    "lat": 11.7418,
    "lon": 122.8787,
    "alertids": [
      "10853905",
      "10853826",
      "10853617",
      "10853598",
      "10851751",
      "10851350",
      "10851102",
      "10849382",
      "10849139",
      "10849003",
      "10848872",
      "10848731",
      "10848557",
      "10848452",
      "10845628",
      "10845289",
      "10844922",
      "10844581",
      "10844356",
      "10844253",
      "10844183",
      "10844015",
      "10835822"
    ]
  },
  {
    "pin": "s3",
    "label": "",
    "place_id": 5616,
    "place_name": "Jammu, Jammu and Kashmir State, India",
    "lat": 32.7333,
    "lon": 74.8667,
    "alertids": ["10853904"]
  },
  {
    "pin": "l5",
    "label": ", Apparenté Variole, Choléra, Diarrhée",
    "place_id": 165,
    "place_name": "Angola",
    "lat": -12.2953,
    "lon": 17.5447,
    "alertids": ["10853887", "10852000", "10851796", "10849792", "10835821"]
  },
  {
    "pin": "s3",
    "label": "",
    "place_id": 317,
    "place_name": "Rajasthan",
    "lat": 25.9975,
    "lon": 74.0039,
    "alertids": [
      "10853801",
      "10853680",
      "10853621",
      "10853591",
      "10852634",
      "10852433",
      "10850779",
      "10847558",
      "10846176",
      "10845904",
      "10845848",
      "10843888",
      "10840595",
      "10839445",
      "10838869",
      "10838469",
      "10835776",
      "10834862"
    ]
  },
  {
    "pin": "s5",
    "label": ", Dengue",
    "place_id": 515,
    "place_name": "Zacatecas",
    "lat": 23.45,
    "lon": -103.0079,
    "alertids": ["10853793", "10839775"]
  },
  {
    "pin": "s3",
    "label": "",
    "place_id": 6058,
    "place_name": "Bengal, India",
    "lat": 24,
    "lon": 88,
    "alertids": [
      "10853777",
      "10844351",
      "10838098",
      "10838036",
      "10837806",
      "10837778",
      "10837742",
      "10837555",
      "10835951"
    ]
  },
  {
    "pin": "l5",
    "label": ", Dengue, Leptospirose, Paludisme, VIH/SIDA",
    "place_id": 23,
    "place_name": "Nicaragua",
    "lat": 12.8399,
    "lon": -85.0348,
    "alertids": ["10853726", "10853221", "10843400", "10839911"]
  },
  {
    "pin": "s3",
    "label": "virus Zika",
    "place_id": 214,
    "place_name": "Hawaii",
    "lat": 20.7502,
    "lon": -156.5003,
    "alertids": ["10853710"]
  },
  {
    "pin": "s3",
    "label": "Salmonella",
    "place_id": 205,
    "place_name": "Alabama",
    "lat": 32.7318,
    "lon": -86.7481,
    "alertids": ["10853704"]
  },
  {
    "pin": "l5",
    "label": "Choléra",
    "place_id": 96,
    "place_name": "Soudan",
    "lat": 13.8315,
    "lon": 30.05,
    "alertids": [
      "10853642",
      "10851653",
      "10847872",
      "10847625",
      "10841406",
      "10841133",
      "10835821"
    ]
  },
  {
    "pin": "s3",
    "label": "",
    "place_id": 6494,
    "place_name": "Cuttack, Orissa, India",
    "lat": 20.465,
    "lon": 85.8793,
    "alertids": ["10853623", "10852134", "10851901", "10851895", "10851405"]
  },
  {
    "pin": "l3",
    "label": "",
    "place_id": 124,
    "place_name": "Oman",
    "lat": 20.6023,
    "lon": 56.1098,
    "alertids": ["10853621"]
  },
  {
    "pin": "l5",
    "label": ", Diarrhée, Fièvre de Lassa, Méningite",
    "place_id": 24,
    "place_name": "Rpublique dominicaine",
    "lat": 18.8944,
    "lon": -70.4846,
    "alertids": ["10853583", "10844734", "10840118", "10839787"]
  },
  {
    "pin": "s5",
    "label": ", Coqueluche, Dengue, Grippe",
    "place_id": 485,
    "place_name": "Aguascalientes",
    "lat": 21.8833,
    "lon": -102.3,
    "alertids": ["10853525", "10850396", "10833566", "10833105"]
  },
  {
    "pin": "s5",
    "label": "Dengue, Papillomavirus",
    "place_id": 494,
    "place_name": "Guanajuato",
    "lat": 21.0229,
    "lon": -101.25,
    "alertids": ["10853523", "10853224", "10846764", "10843791", "10841666"]
  },
  {
    "pin": "l5",
    "label": ", Coqueluche, Gastro-entérite, Grippe, Maladie respiratoire, Rhume",
    "place_id": 7,
    "place_name": "Chili",
    "lat": -37.8525,
    "lon": -72.374,
    "alertids": [
      "10853519",
      "10853026",
      "10850517",
      "10849209",
      "10847242",
      "10846146",
      "10845919",
      "10843998",
      "10843487",
      "10842224",
      "10837480",
      "10836842",
      "10833194"
    ]
  },
  {
    "pin": "l5",
    "label": ", Chikungunya, Dengue, Méningite, Otite",
    "place_id": 9,
    "place_name": "Paraguay",
    "lat": -23.2362,
    "lon": -58.391,
    "alertids": [
      "10853290",
      "10852995",
      "10841967",
      "10841958",
      "10841565",
      "10840188"
    ]
  },
  {
    "pin": "s5",
    "label": ", Dengue, Maladie chronique/non-infectieuse, Maladie respiratoire, Syndrome bouche-main-pied, Tuberculose, VIH/SIDA",
    "place_id": 513,
    "place_name": "Veracruz",
    "lat": 19.3318,
    "lon": -96.6578,
    "alertids": [
      "10853196",
      "10853156",
      "10852785",
      "10851634",
      "10851087",
      "10850094",
      "10849752",
      "10846312",
      "10836995",
      "10836771",
      "10836420",
      "10833127"
    ]
  },
  {
    "pin": "s5",
    "label": ", Coqueluche, Maladie chronique/non-infectieuse, Oreillons, Rickettsia, Tuberculose",
    "place_id": 490,
    "place_name": "Chihuahua",
    "lat": 28.6333,
    "lon": -106.0834,
    "alertids": [
      "10853067",
      "10852827",
      "10852002",
      "10850866",
      "10848798",
      "10843131",
      "10836938",
      "10835855",
      "10834476",
      "10834271"
    ]
  },
  {
    "pin": "s5",
    "label": "Apparenté Variole, Dengue, Tuberculose",
    "place_id": 496,
    "place_name": "Hidalgo",
    "lat": 20.5093,
    "lon": -99.0088,
    "alertids": ["10853025", "10848572", "10835330"]
  },
  {
    "pin": "s5",
    "label": "Rougeole",
    "place_id": 225,
    "place_name": "Michigan",
    "lat": 43.5803,
    "lon": -84.4629,
    "alertids": ["10853010"]
  },
  {
    "pin": "s5",
    "label": ", Dengue, Fièvre, Grippe, hépatite A",
    "place_id": 491,
    "place_name": "Coahuila",
    "lat": 27.3327,
    "lon": -101.9971,
    "alertids": [
      "10852798",
      "10852793",
      "10852687",
      "10852266",
      "10849372",
      "10847252",
      "10847018",
      "10842203",
      "10838326",
      "10834606"
    ]
  },
  {
    "pin": "l5",
    "label": ", Diarrhée, Maladie chronique/non-infectieuse",
    "place_id": 14,
    "place_name": "Mexique",
    "lat": 23.9505,
    "lon": -102.5329,
    "alertids": ["10852785", "10847124", "10847069", "10846312", "10839910"]
  },
  {
    "pin": "s4",
    "label": "Papillomavirus, Tuberculose",
    "place_id": 508,
    "place_name": "Sinaloa",
    "lat": 25.0059,
    "lon": -107.4903,
    "alertids": ["10852716", "10840124"]
  },
  {
    "pin": "s3",
    "label": "",
    "place_id": 2384,
    "place_name": "Kolkata, West Bengal, India",
    "lat": 22.5697,
    "lon": 88.3697,
    "alertids": ["10852577", "10837998", "10837806"]
  },
  {
    "pin": "s5",
    "label": ", Choléra, Dengue",
    "place_id": 497,
    "place_name": "Jalisco",
    "lat": 20.324,
    "lon": -103.667,
    "alertids": [
      "10852529",
      "10849748",
      "10849371",
      "10847209",
      "10846192",
      "10843616",
      "10837347",
      "10837110",
      "10836543"
    ]
  },
  {
    "pin": "l5",
    "label": ", SRAS",
    "place_id": 195,
    "place_name": "Core du Sud",
    "lat": 36.6155,
    "lon": 127.727,
    "alertids": ["10852340", "10833376"]
  },
  {
    "pin": "s5",
    "label": "Fièvre de Lassa",
    "place_id": 24841,
    "place_name": "Ondo State, Nigeria",
    "lat": 7.0887,
    "lon": 4.8388,
    "alertids": ["10852328"]
  },
  {
    "pin": "s4",
    "label": "Grippe",
    "place_id": 5649,
    "place_name": "Espirito Santo, Brazil",
    "lat": -20,
    "lon": -40.75,
    "alertids": ["10852316"]
  },
  {
    "pin": "l4",
    "label": ", E. coli, Rage, Salmonella, Virus du Nil occidental ",
    "place_id": 40,
    "place_name": "Royaume-Uni",
    "lat": 54.47,
    "lon": -2.0215,
    "alertids": [
      "10852105",
      "10851314",
      "10847668",
      "10847423",
      "10845517",
      "10841557",
      "10840855",
      "10836080"
    ]
  },
  {
    "pin": "s3",
    "label": "",
    "place_id": 322,
    "place_name": "Uttar Pradesh",
    "lat": 27.2546,
    "lon": 80.7495,
    "alertids": [
      "10852019",
      "10848197",
      "10846606",
      "10845508",
      "10841797",
      "10841189"
    ]
  },
  {
    "pin": "s5",
    "label": "Dengue, Grippe, Grippe aviaire, Grippe porcine",
    "place_id": 506,
    "place_name": "Quintana Roo",
    "lat": 19.3,
    "lon": -88.5059,
    "alertids": ["10851970", "10843424", "10836705"]
  },
  {
    "pin": "s4",
    "label": ", H. influenzae, Rougeole, Salmonella",
    "place_id": 234,
    "place_name": "tat de New York",
    "lat": 43.0046,
    "lon": -75.4981,
    "alertids": ["10851961", "10849391", "10849363", "10840774"]
  },
  {
    "pin": "l4",
    "label": "Rougeole",
    "place_id": 1,
    "place_name": "Mongolie",
    "lat": 46.8353,
    "lon": 103.0832,
    "alertids": ["10851908"]
  },
  {
    "pin": "s5",
    "label": ", Dengue",
    "place_id": 3419,
    "place_name": "Rio Grande do Sul, Brazil",
    "lat": -30,
    "lon": -54,
    "alertids": ["10851886", "10847520", "10846427", "10845003", "10833895"]
  },
  {
    "pin": "l2",
    "label": "Organisme nuisible",
    "place_id": 99,
    "place_name": "Belgique",
    "lat": 50.6428,
    "lon": 4.664,
    "alertids": ["10851862"]
  },
  {
    "pin": "s5",
    "label": "Rougeole",
    "place_id": 228,
    "place_name": "Montana",
    "lat": 47.0102,
    "lon": -109.7315,
    "alertids": [
      "10851752",
      "10849492",
      "10849162",
      "10849001",
      "10849000",
      "10848556",
      "10846560",
      "10844086"
    ]
  },
  {
    "pin": "s5",
    "label": "Dengue, Grippe",
    "place_id": 8243,
    "place_name": "Sergipe, Brazil",
    "lat": -10.5,
    "lon": -37.5,
    "alertids": ["10851743", "10850901"]
  },
  {
    "pin": "s5",
    "label": "Rougeole",
    "place_id": 236,
    "place_name": "Dakota du Nord",
    "lat": 47.4875,
    "lon": -100.0196,
    "alertids": ["10851657", "10849806", "10843916", "10843235"]
  },
  {
    "pin": "s1",
    "label": "",
    "place_id": 1749,
    "place_name": "Shivpuri, Madhya Pradesh, India",
    "lat": 25.4333,
    "lon": 77.65,
    "alertids": ["10851530"]
  },
  {
    "pin": "l1",
    "label": "",
    "place_id": 104,
    "place_name": "Pays-Bas",
    "lat": 52.2493,
    "lon": 5.6034,
    "alertids": ["10851424"]
  },
  {
    "pin": "l3",
    "label": ", Infection sexuellement transmissible",
    "place_id": 151,
    "place_name": "Thailande",
    "lat": 15.127,
    "lon": 101.0174,
    "alertids": [
      "10851423",
      "10851111",
      "10846937",
      "10844443",
      "10841339",
      "10840581",
      "10840418",
      "10837950",
      "10837223"
    ]
  },
  {
    "pin": "s5",
    "label": "Coqueluche",
    "place_id": 500,
    "place_name": "Morelos",
    "lat": 18.7503,
    "lon": -99.0088,
    "alertids": ["10851322", "10849742"]
  },
  {
    "pin": "s3",
    "label": "",
    "place_id": 994,
    "place_name": "Jamshedpur, Jharkhand, India",
    "lat": 22.8,
    "lon": 86.1833,
    "alertids": ["10851301"]
  },
  {
    "pin": "s5",
    "label": ", Dengue, Diarrhée, Virus du Nil occidental ",
    "place_id": 504,
    "place_name": "Puebla",
    "lat": 18.8335,
    "lon": -97.9981,
    "alertids": ["10851215", "10850719", "10840019", "10837345"]
  },
  {
    "pin": "s5",
    "label": "Rougeole",
    "place_id": 218,
    "place_name": "Iowa",
    "lat": 42.0003,
    "lon": -93.5157,
    "alertids": ["10851179"]
  },
  {
    "pin": "s3",
    "label": "",
    "place_id": 3748,
    "place_name": "Visakhapatnam, Andhra Pradesh, India",
    "lat": 17.7,
    "lon": 83.3,
    "alertids": ["10851040"]
  },
  {
    "pin": "s3",
    "label": "",
    "place_id": 43811,
    "place_name": "Vizag, Andhra Pradesh, India",
    "lat": 17.6801,
    "lon": 83.2016,
    "alertids": ["10851040"]
  },
  {
    "pin": "s3",
    "label": ", Mélioïdose",
    "place_id": 198,
    "place_name": "Hong Kong",
    "lat": 22.284,
    "lon": 114.15,
    "alertids": ["10851007", "10848055"]
  },
  {
    "pin": "s3",
    "label": "",
    "place_id": 9194,
    "place_name": "Jaipur, Rajasthan, India",
    "lat": 26.9167,
    "lon": 75.8167,
    "alertids": ["10850779", "10838889"]
  },
  {
    "pin": "s3",
    "label": "",
    "place_id": 482,
    "place_name": "Bombay",
    "lat": 18.975,
    "lon": 72.8258,
    "alertids": [
      "10850477",
      "10846549",
      "10845158",
      "10844543",
      "10840356",
      "10839349",
      "10839250",
      "10838098",
      "10837550",
      "10836677",
      "10835813",
      "10834648",
      "10834058",
      "10833851",
      "10833517",
      "10833475",
      "10833295"
    ]
  },
  {
    "pin": "l5",
    "label": "Maladie chronique/non-infectieuse, Rougeole",
    "place_id": 12,
    "place_name": "Canada",
    "lat": 55.429,
    "lon": -101.8653,
    "alertids": ["10850265", "10840774", "10839769"]
  },
  {
    "pin": "s2",
    "label": "",
    "place_id": 486,
    "place_name": "Basse-Californie",
    "lat": 30.0025,
    "lon": -115.0049,
    "alertids": ["10850229"]
  },
  {
    "pin": "l2",
    "label": "",
    "place_id": 131,
    "place_name": "Arabie saoudite",
    "lat": 24.123,
    "lon": 44.5462,
    "alertids": ["10850229"]
  },
  {
    "pin": "s5",
    "label": "Rougeole",
    "place_id": 261,
    "place_name": "Manitoba",
    "lat": 55.0028,
    "lon": -96.9874,
    "alertids": ["10850226", "10846895"]
  },
  {
    "pin": "s3",
    "label": "",
    "place_id": 502,
    "place_name": "Nuevo Len",
    "lat": 25.6613,
    "lon": -99.9976,
    "alertids": ["10850097", "10849760", "10848994"]
  },
  {
    "pin": "s5",
    "label": "Dengue",
    "place_id": 2780,
    "place_name": "Pernambuco, Brazil",
    "lat": -8,
    "lon": -37,
    "alertids": ["10850068"]
  },
  {
    "pin": "s2",
    "label": "Organisme nuisible",
    "place_id": 223,
    "place_name": "Maryland",
    "lat": 38.9594,
    "lon": -76.377,
    "alertids": ["10850034"]
  },
  {
    "pin": "l5",
    "label": "Dengue, Diarrhée, Grippe, Méningite",
    "place_id": 18,
    "place_name": "Panam",
    "lat": 8.5072,
    "lon": -80.1027,
    "alertids": [
      "10849798",
      "10846313",
      "10845939",
      "10843828",
      "10837111",
      "10836929",
      "10836926",
      "10836828",
      "10836824"
    ]
  },
  {
    "pin": "l5",
    "label": ", Dengue, Grippe, Grippe aviaire, Lèpre, hépatite E",
    "place_id": 5,
    "place_name": "Bolivie",
    "lat": -16.7146,
    "lon": -64.6709,
    "alertids": [
      "10849794",
      "10845696",
      "10842944",
      "10842248",
      "10840014",
      "10839788"
    ]
  },
  {
    "pin": "s4",
    "label": ", Rougeole",
    "place_id": 260,
    "place_name": "Ontario",
    "lat": 51.727,
    "lon": -86.7042,
    "alertids": ["10849724", "10849402", "10849381", "10847876"]
  },
  {
    "pin": "s5",
    "label": "Dengue",
    "place_id": 3935,
    "place_name": "Amazonas, Brazil",
    "lat": -5,
    "lon": -63,
    "alertids": ["10849633"]
  },
  {
    "pin": "l3",
    "label": "Peste",
    "place_id": 150,
    "place_name": "Singapour",
    "lat": 1.2916,
    "lon": 103.8081,
    "alertids": ["10849427"]
  },
  {
    "pin": "s5",
    "label": ", Dengue",
    "place_id": 4046,
    "place_name": "Mato Grosso, Brazil",
    "lat": -13,
    "lon": -56,
    "alertids": ["10849235", "10848100", "10846938", "10845469"]
  },
  {
    "pin": "s5",
    "label": "E. coli, Virus du Nil occidental ",
    "place_id": 216,
    "place_name": "Illinois",
    "lat": 40.0107,
    "lon": -89.253,
    "alertids": ["10849081", "10834850"]
  },
  {
    "pin": "s5",
    "label": ", Dengue",
    "place_id": 503,
    "place_name": "Oaxaca",
    "lat": 17.0567,
    "lon": -96.7237,
    "alertids": ["10849051", "10847139", "10836167"]
  },
  {
    "pin": "s1",
    "label": "",
    "place_id": 227,
    "place_name": "Missouri",
    "lat": 38.2381,
    "lon": -92.5049,
    "alertids": ["10848884"]
  },
  {
    "pin": "l3",
    "label": "",
    "place_id": 39,
    "place_name": "Irlande",
    "lat": 53.1764,
    "lon": -8.1506,
    "alertids": ["10848764", "10848605"]
  },
  {
    "pin": "l3",
    "label": "",
    "place_id": 19,
    "place_name": "Belize",
    "lat": 17.2177,
    "lon": -88.6848,
    "alertids": ["10848610"]
  },
  {
    "pin": "l5",
    "label": ", Coqueluche",
    "place_id": 8,
    "place_name": "quateur",
    "lat": -1.4274,
    "lon": -78.7671,
    "alertids": ["10848480", "10848072", "10840178"]
  },
  {
    "pin": "s5",
    "label": ", Dengue, Organisme nuisible, Peste",
    "place_id": 489,
    "place_name": "Chiapas",
    "lat": 16.5098,
    "lon": -92.5049,
    "alertids": [
      "10848473",
      "10848070",
      "10844069",
      "10844066",
      "10842734",
      "10842446"
    ]
  },
  {
    "pin": "s3",
    "label": "",
    "place_id": 306,
    "place_name": "Jharkhand",
    "lat": 23.75,
    "lon": 85.5,
    "alertids": ["10848301", "10837636", "10836754", "10836748"]
  },
  {
    "pin": "l4",
    "label": "Variole du singe",
    "place_id": 95,
    "place_name": "thiopie",
    "lat": 8.6262,
    "lon": 39.616,
    "alertids": ["10847875", "10839287", "10836962", "10836347", "10836203"]
  },
  {
    "pin": "l4",
    "label": "Variole du singe",
    "place_id": 134,
    "place_name": "Azerbadjan",
    "lat": 40.5,
    "lon": 47.5,
    "alertids": ["10847875"]
  },
  {
    "pin": "l4",
    "label": "Chikungunya, Maladie respiratoire",
    "place_id": 100,
    "place_name": "France",
    "lat": 46.5645,
    "lon": 2.552,
    "alertids": ["10847732", "10841268"]
  },
  {
    "pin": "s3",
    "label": "",
    "place_id": 6468,
    "place_name": "Srinagar, Kashmir, India",
    "lat": 34.0833,
    "lon": 74.8167,
    "alertids": ["10847618", "10847361", "10846033"]
  },
  {
    "pin": "s5",
    "label": "Coqueluche",
    "place_id": 501,
    "place_name": "Nayarit",
    "lat": 22.0041,
    "lon": -105.0074,
    "alertids": ["10847604"]
  },
  {
    "pin": "s3",
    "label": "",
    "place_id": 325,
    "place_name": "Chandigarh",
    "lat": 30.7418,
    "lon": 76.7834,
    "alertids": [
      "10847514",
      "10847000",
      "10846882",
      "10845765",
      "10845508",
      "10845503",
      "10845310",
      "10844969",
      "10844664",
      "10844641",
      "10844566",
      "10844569",
      "10844564",
      "10844558",
      "10844556"
    ]
  },
  {
    "pin": "l4",
    "label": ", Poliomyélite",
    "place_id": 140,
    "place_name": "Pakistan",
    "lat": 29.967,
    "lon": 69.386,
    "alertids": ["10847265", "10847095"]
  },
  {
    "pin": "s3",
    "label": "",
    "place_id": 25928,
    "place_name": "Guntur, Andhra Pradesh, India",
    "lat": 16.3,
    "lon": 80.45,
    "alertids": ["10847261", "10840939"]
  },
  {
    "pin": "s3",
    "label": "",
    "place_id": 297,
    "place_name": "Andhra Pradesh",
    "lat": 16,
    "lon": 79,
    "alertids": ["10847261", "10835499"]
  },
  {
    "pin": "l5",
    "label": ", Bronchite/Bronchiolite, Coqueluche, Diarrhée, Grippe, Oreillons, Rougeole",
    "place_id": 90,
    "place_name": "Isral",
    "lat": 30.921,
    "lon": 34.8651,
    "alertids": [
      "10847071",
      "10846680",
      "10845385",
      "10841854",
      "10840699",
      "10838276"
    ]
  },
  {
    "pin": "s4",
    "label": "Fièvre",
    "place_id": 10427,
    "place_name": "Maranhão, Brazil",
    "lat": -5,
    "lon": -45,
    "alertids": ["10846925"]
  },
  {
    "pin": "l5",
    "label": ", Dengue, Maladie respiratoire",
    "place_id": 22,
    "place_name": "Honduras",
    "lat": 14.8192,
    "lon": -86.6191,
    "alertids": ["10846868", "10841939", "10838169", "10837107"]
  },
  {
    "pin": "l3",
    "label": "Maladie respiratoire",
    "place_id": 13,
    "place_name": "Guatemala",
    "lat": 15.7021,
    "lon": -90.3562,
    "alertids": ["10846799"]
  },
  {
    "pin": "s3",
    "label": "",
    "place_id": 1789,
    "place_name": "Ludhiana, Punjab, India",
    "lat": 30.9,
    "lon": 75.85,
    "alertids": ["10846730"]
  },
  {
    "pin": "s5",
    "label": "Rougeole",
    "place_id": 208,
    "place_name": "Arkansas",
    "lat": 34.7416,
    "lon": -92.5049,
    "alertids": ["10846679", "10846319"]
  },
  {
    "pin": "s5",
    "label": "Dengue",
    "place_id": 9545,
    "place_name": "Alagoas, Brazil",
    "lat": -9,
    "lon": -36,
    "alertids": ["10846646"]
  },
  {
    "pin": "s3",
    "label": "",
    "place_id": 14529,
    "place_name": "Agra, Uttar Pradesh, India",
    "lat": 27.1833,
    "lon": 78.0167,
    "alertids": ["10846606", "10844541", "10842841"]
  },
  {
    "pin": "s3",
    "label": "",
    "place_id": 303,
    "place_name": "Haryana",
    "lat": 28.9985,
    "lon": 76.0034,
    "alertids": [
      "10846550",
      "10845765",
      "10845310",
      "10840158",
      "10837748",
      "10837632",
      "10833917",
      "10833913"
    ]
  },
  {
    "pin": "l3",
    "label": ", Fièvre",
    "place_id": 147,
    "place_name": "Malaisie",
    "lat": 2.5746,
    "lon": 113.1918,
    "alertids": ["10846512", "10836465", "10836299"]
  },
  {
    "pin": "l5",
    "label": "Dengue",
    "place_id": 105,
    "place_name": "Suisse",
    "lat": 46.8025,
    "lon": 8.2344,
    "alertids": ["10846392"]
  },
  {
    "pin": "s5",
    "label": "Dengue, Hépatite",
    "place_id": 4517,
    "place_name": "Minas Gerais, Brazil",
    "lat": -18,
    "lon": -44,
    "alertids": ["10846382", "10844837"]
  },
  {
    "pin": "s3",
    "label": "Organisme nuisible",
    "place_id": 4368,
    "place_name": "New Orleans, Louisiana, United States",
    "lat": 29.9546,
    "lon": -90.0751,
    "alertids": ["10846338"]
  },
  {
    "pin": "s3",
    "label": "",
    "place_id": 582,
    "place_name": "Chennai",
    "lat": 13.0604,
    "lon": 80.2496,
    "alertids": ["10846221", "10845122", "10844794", "10844766"]
  },
  {
    "pin": "l3",
    "label": ", Tuberculose",
    "place_id": 123,
    "place_name": "Ukraine",
    "lat": 49.0171,
    "lon": 31.3871,
    "alertids": ["10846191", "10841597", "10840779"]
  },
  {
    "pin": "s3",
    "label": "Virus du Nil occidental ",
    "place_id": 231,
    "place_name": "New Hampshire",
    "lat": 43.6758,
    "lon": -71.4991,
    "alertids": ["10846179"]
  },
  {
    "pin": "l4",
    "label": ", Bronchite/Bronchiolite, Fièvre, Maladie chronique/non-infectieuse",
    "place_id": 29,
    "place_name": "Venezuela",
    "lat": 7.1225,
    "lon": -66.1696,
    "alertids": ["10845943", "10842238", "10840139", "10834477"]
  },
  {
    "pin": "s1",
    "label": "Rougeole",
    "place_id": 229,
    "place_name": "Nebraska",
    "lat": 41.5085,
    "lon": -99.7559,
    "alertids": ["10845743"]
  },
  {
    "pin": "s1",
    "label": "Maladie d'origine hydrique",
    "place_id": 61037,
    "place_name": "Washington County, Virginia, United States",
    "lat": 36.7245,
    "lon": -81.9597,
    "alertids": ["10845559"]
  },
  {
    "pin": "s1",
    "label": "Maladie d'origine hydrique",
    "place_id": 22621,
    "place_name": "Baxter County, Arkansas, United States",
    "lat": 36.3334,
    "lon": -92.3668,
    "alertids": ["10845557"]
  },
  {
    "pin": "s5",
    "label": ", Rougeole",
    "place_id": 263,
    "place_name": "Alberta",
    "lat": 55.1537,
    "lon": -115.0049,
    "alertids": ["10845536", "10841173", "10839954", "10833721", "10833681"]
  },
  {
    "pin": "s3",
    "label": "",
    "place_id": 6243,
    "place_name": "Thane, Maharashtra, India",
    "lat": 19.2,
    "lon": 72.9667,
    "alertids": [
      "10845445",
      "10838973",
      "10836877",
      "10836068",
      "10834620",
      "10834512",
      "10834413",
      "10834338",
      "10834167",
      "10834150",
      "10834104",
      "10833736",
      "10833680"
    ]
  },
  {
    "pin": "s3",
    "label": "",
    "place_id": 244,
    "place_name": "Tennessee",
    "lat": 35.7465,
    "lon": -86.2647,
    "alertids": ["10845435"]
  },
  {
    "pin": "l5",
    "label": "Dengue, Fièvre catarrhale",
    "place_id": 42,
    "place_name": "Portugal",
    "lat": 39.601,
    "lon": -8.0627,
    "alertids": ["10845370", "10835702"]
  },
  {
    "pin": "s3",
    "label": "",
    "place_id": 13778,
    "place_name": "Ghaziabad, Uttar Pradesh, India",
    "lat": 28.6667,
    "lon": 77.4333,
    "alertids": ["10845081", "10841775", "10833451", "10833177"]
  },
  {
    "pin": "l3",
    "label": "",
    "place_id": 145,
    "place_name": "Cambodge",
    "lat": 12.7164,
    "lon": 104.924,
    "alertids": ["10844421"]
  },
  {
    "pin": "s3",
    "label": "",
    "place_id": 7316,
    "place_name": "Nagpur, Mahārāshtra, India",
    "lat": 21.15,
    "lon": 79.1,
    "alertids": ["10844326"]
  },
  {
    "pin": "s4",
    "label": "Diarrhée",
    "place_id": 507,
    "place_name": "San Luis Potos",
    "lat": 22.4922,
    "lon": -100.503,
    "alertids": ["10844300"]
  },
  {
    "pin": "s5",
    "label": "Dengue, Diarrhée",
    "place_id": 510,
    "place_name": "Tabasco",
    "lat": 18.2,
    "lon": -92.95,
    "alertids": ["10844237", "10844069", "10844066"]
  },
  {
    "pin": "l5",
    "label": "Grippe aviaire",
    "place_id": 98,
    "place_name": "Russie",
    "lat": 61.9461,
    "lon": 93.5777,
    "alertids": ["10844123"]
  },
  {
    "pin": "s3",
    "label": "",
    "place_id": 3708,
    "place_name": "Ahmedabad, Gujarat, India",
    "lat": 23.0333,
    "lon": 72.6167,
    "alertids": ["10844088", "10843805", "10833460", "10833223"]
  },
  {
    "pin": "s3",
    "label": "",
    "place_id": 193,
    "place_name": "Taiwan",
    "lat": 23.873,
    "lon": 121.017,
    "alertids": ["10843974", "10841244"]
  },
  {
    "pin": "s5",
    "label": "Dengue",
    "place_id": 493,
    "place_name": "Durango",
    "lat": 24.8,
    "lon": -104.7,
    "alertids": ["10843784"]
  },
  {
    "pin": "l4",
    "label": ", Méningite - | Neisseria",
    "place_id": 167,
    "place_name": "Fidji",
    "lat": -18,
    "lon": 178,
    "alertids": ["10843765", "10840254"]
  },
  {
    "pin": "s3",
    "label": "",
    "place_id": 252,
    "place_name": "New York",
    "lat": 40.7139,
    "lon": -74.004,
    "alertids": ["10843718"]
  },
  {
    "pin": "s3",
    "label": "",
    "place_id": 9360,
    "place_name": "Karnal, Haryana, India",
    "lat": 29.6833,
    "lon": 76.9833,
    "alertids": ["10843505", "10834330"]
  },
  {
    "pin": "l3",
    "label": "Tuberculose",
    "place_id": 138,
    "place_name": "Kirghizistan",
    "lat": 41.4651,
    "lon": 74.5556,
    "alertids": ["10843273"]
  },
  {
    "pin": "l2",
    "label": "",
    "place_id": 41,
    "place_name": "Maroc",
    "lat": 31.8836,
    "lon": -6.3179,
    "alertids": ["10842726"]
  },
  {
    "pin": "s3",
    "label": "",
    "place_id": 5341,
    "place_name": "Gandhinagar, Gujarāt, India",
    "lat": 23.2167,
    "lon": 72.6833,
    "alertids": ["10842118"]
  },
  {
    "pin": "s5",
    "label": "Chikungunya, Dengue",
    "place_id": 985,
    "place_name": "Bahia, Brazil",
    "lat": -12,
    "lon": -42,
    "alertids": ["10841936", "10834930"]
  },
  {
    "pin": "s4",
    "label": "Grippe porcine",
    "place_id": 3168,
    "place_name": "Goiás, Brazil",
    "lat": -12,
    "lon": -48,
    "alertids": ["10841804"]
  },
  {
    "pin": "s5",
    "label": "Rougeole",
    "place_id": 215,
    "place_name": "Idaho",
    "lat": 43.644,
    "lon": -114.1919,
    "alertids": ["10841679"]
  },
  {
    "pin": "l3",
    "label": "Paludisme",
    "place_id": 148,
    "place_name": "Birmanie",
    "lat": 21.1543,
    "lon": 96.5069,
    "alertids": ["10841349"]
  },
  {
    "pin": "l3",
    "label": "Infection sexuellement transmissible",
    "place_id": 203,
    "place_name": "les Canaries [Espagne]",
    "lat": 28,
    "lon": -15.5,
    "alertids": ["10841296"]
  },
  {
    "pin": "l4",
    "label": "Variole du singe",
    "place_id": 53,
    "place_name": "Ghana",
    "lat": 7.9599,
    "lon": -1.2073,
    "alertids": ["10841221"]
  },
  {
    "pin": "s3",
    "label": "",
    "place_id": 1209,
    "place_name": "Mohali, Punjab, India",
    "lat": 30.7038,
    "lon": 76.7187,
    "alertids": ["10841059", "10837632"]
  },
  {
    "pin": "s3",
    "label": "",
    "place_id": 753,
    "place_name": "Amritsar, Punjab, India",
    "lat": 31.6331,
    "lon": 74.8656,
    "alertids": ["10841059"]
  },
  {
    "pin": "s3",
    "label": "",
    "place_id": 323,
    "place_name": "Bengale-Occidental",
    "lat": 22.82,
    "lon": 88.2,
    "alertids": ["10841043", "10839203", "10837998"]
  },
  {
    "pin": "s3",
    "label": "",
    "place_id": 192,
    "place_name": "Porto Rico",
    "lat": 18.2513,
    "lon": -66.5014,
    "alertids": ["10840919"]
  },
  {
    "pin": "l1",
    "label": "",
    "place_id": 87,
    "place_name": "Turquie",
    "lat": 39.0606,
    "lon": 35.1797,
    "alertids": ["10840855"]
  },
  {
    "pin": "s1",
    "label": "",
    "place_id": 279,
    "place_name": "Angleterre",
    "lat": 53.0346,
    "lon": -0.5604,
    "alertids": ["10840821"]
  },
  {
    "pin": "s4",
    "label": "Chikungunya",
    "place_id": 3606,
    "place_name": "Colombo, Colombo District, Western, Sri Lanka",
    "lat": 6.9319,
    "lon": 79.8478,
    "alertids": ["10840718"]
  },
  {
    "pin": "s4",
    "label": "Fièvre jaune",
    "place_id": 259,
    "place_name": "Washington",
    "lat": 38.895,
    "lon": -77.0367,
    "alertids": ["10840234"]
  },
  {
    "pin": "s5",
    "label": "Dengue",
    "place_id": 514,
    "place_name": "Yucatn",
    "lat": 20.8382,
    "lon": -88.9893,
    "alertids": ["10839776", "10834962"]
  },
  {
    "pin": "s1",
    "label": "",
    "place_id": 204,
    "place_name": "Californie",
    "lat": 37.2502,
    "lon": -119.7503,
    "alertids": ["10839718", "10838235"]
  },
  {
    "pin": "s2",
    "label": "",
    "place_id": 276,
    "place_name": "Vancouver",
    "lat": 49.2496,
    "lon": -123.1194,
    "alertids": ["10839575"]
  },
  {
    "pin": "s4",
    "label": "VIH/SIDA",
    "place_id": 488,
    "place_name": "Campeche",
    "lat": 18.8828,
    "lon": -90.4134,
    "alertids": ["10839489"]
  },
  {
    "pin": "l4",
    "label": "Conflit, Poliomyélite, Rougeole",
    "place_id": 137,
    "place_name": "Afghanistan",
    "lat": 33.8388,
    "lon": 66.0265,
    "alertids": ["10839366", "10836298", "10836240"]
  },
  {
    "pin": "s5",
    "label": "Dengue",
    "place_id": 512,
    "place_name": "Tlaxcala",
    "lat": 19.4147,
    "lon": -98.1739,
    "alertids": ["10839208"]
  },
  {
    "pin": "s3",
    "label": "",
    "place_id": 46246,
    "place_name": "Bihar, India",
    "lat": 25.75,
    "lon": 85.75,
    "alertids": ["10838802", "10838147", "10838098", "10838045", "10837949"]
  },
  {
    "pin": "s3",
    "label": "",
    "place_id": 6637,
    "place_name": "Mysore, Mysuru District, Karnataka, India",
    "lat": 12.3072,
    "lon": 76.6497,
    "alertids": ["10838676", "10834324"]
  },
  {
    "pin": "s3",
    "label": "",
    "place_id": 6443,
    "place_name": "Indore, Madhya Pradesh, India",
    "lat": 22.7179,
    "lon": 75.8333,
    "alertids": ["10838554", "10834416", "10833603"]
  },
  {
    "pin": "s2",
    "label": "",
    "place_id": 296,
    "place_name": "Sydney",
    "lat": -33.8705,
    "lon": 151.2158,
    "alertids": ["10837520"]
  },
  {
    "pin": "s2",
    "label": "",
    "place_id": 495,
    "place_name": "Guerrero",
    "lat": 17.6649,
    "lon": -99.9976,
    "alertids": ["10837076"]
  },
  {
    "pin": "l4",
    "label": "Variole du singe",
    "place_id": 130,
    "place_name": "Qatar",
    "lat": 25.3151,
    "lon": 51.1912,
    "alertids": ["10836962"]
  },
  {
    "pin": "s4",
    "label": "Varicelle",
    "place_id": 499,
    "place_name": "Michoacn",
    "lat": 19.1659,
    "lon": -101.8433,
    "alertids": ["10836918"]
  },
  {
    "pin": "s1",
    "label": "",
    "place_id": 354,
    "place_name": "Minnesota",
    "lat": 46.2254,
    "lon": -94.6583,
    "alertids": ["10836921", "10833109"]
  },
  {
    "pin": "s3",
    "label": "",
    "place_id": 30758,
    "place_name": "Ranchi, Jharkhand, India",
    "lat": 23.3441,
    "lon": 85.3096,
    "alertids": ["10836754", "10836738"]
  },
  {
    "pin": "s5",
    "label": "Grippe aviaire",
    "place_id": 232,
    "place_name": "New Jersey",
    "lat": 40.1788,
    "lon": -74.3555,
    "alertids": ["10836705"]
  },
  {
    "pin": "s3",
    "label": "",
    "place_id": 19917,
    "place_name": "Kalwa, Haryana, India",
    "lat": 30.1116,
    "lon": 76.9819,
    "alertids": ["10835942", "10834648", "10833742"]
  },
  {
    "pin": "l4",
    "label": "Choléra",
    "place_id": 8402,
    "place_name": "South Sudan",
    "lat": 6.883,
    "lon": 30.498,
    "alertids": ["10835821"]
  },
  {
    "pin": "l4",
    "label": ", Choléra",
    "place_id": 194,
    "place_name": "Rpublique dmocratique du Congo",
    "lat": -2,
    "lon": 25,
    "alertids": ["10835821", "10833834"]
  },
  {
    "pin": "l1",
    "label": "",
    "place_id": 126,
    "place_name": "Ymen",
    "lat": 15.9056,
    "lon": 47.6,
    "alertids": ["10835482"]
  },
  {
    "pin": "s3",
    "label": "",
    "place_id": 947,
    "place_name": "Karachi, Sindh, Pakistan",
    "lat": 24.8667,
    "lon": 67.05,
    "alertids": ["10835465"]
  },
  {
    "pin": "l3",
    "label": "",
    "place_id": 144,
    "place_name": "Sri Lanka",
    "lat": 7.6081,
    "lon": 80.7047,
    "alertids": ["10834943", "10834381", "10833932"]
  },
  {
    "pin": "s3",
    "label": "Paludisme",
    "place_id": 301,
    "place_name": "Goa",
    "lat": 15.5807,
    "lon": 74.0039,
    "alertids": ["10834934"]
  },
  {
    "pin": "s3",
    "label": "",
    "place_id": 321,
    "place_name": "Uttarakhand",
    "lat": 30.259,
    "lon": 79.2553,
    "alertids": ["10834581", "10834049", "10833702", "10833656", "10833550"]
  },
  {
    "pin": "l2",
    "label": "",
    "place_id": 76,
    "place_name": "Macdoine",
    "lat": 41.5997,
    "lon": 21.6975,
    "alertids": ["10834499"]
  },
  {
    "pin": "l3",
    "label": "",
    "place_id": 129,
    "place_name": "Kowet",
    "lat": 29.3408,
    "lon": 47.5909,
    "alertids": ["10834419"]
  },
  {
    "pin": "s3",
    "label": "",
    "place_id": 14822,
    "place_name": "Rishikesh, Uttarakhand, India",
    "lat": 30.1167,
    "lon": 78.3167,
    "alertids": ["10833702"]
  },
  {
    "pin": "s5",
    "label": "Rougeole",
    "place_id": 217,
    "place_name": "Indiana",
    "lat": 40.0107,
    "lon": -86.2647,
    "alertids": ["10833691", "10833242"]
  },
  {
    "pin": "s3",
    "label": "Rage",
    "place_id": 7995,
    "place_name": "Kendrapara, Orissa, India",
    "lat": 20.4992,
    "lon": 86.4263,
    "alertids": ["10833369"]
  },
  {
    "pin": "s4",
    "label": "Rougeole",
    "place_id": 247,
    "place_name": "Virginie",
    "lat": 37.649,
    "lon": -78.3545,
    "alertids": ["10833168"]
  },
  {
    "pin": "s5",
    "label": "Rougeole",
    "place_id": 450,
    "place_name": "Miami",
    "lat": 25.7742,
    "lon": -80.1937,
    "alertids": ["10833116"]
  }
]
